{"stations": [{"siteId": "CL-SDP", "siteName": "Senda Darwin Peatland", "country": "Chile", "regionalScope": "Chiloé Island, Northern Patagonia / peatland region", "ecosystem": "Peatland / wetland", "ecosystemBiome": "Wetland", "igbp": "WET", "network": "AmeriFlux", "lat": -41.879, "lon": -73.666, "yearStart": 2014, "yearEnd": 2021, "coverageYears": 8, "observations": 2922, "utilityScore": 0.902, "qualityClass": "high", "qualityColor": "#2F6B3B", "markerRadius": 16.0, "validPct": {"NEE": 99.66, "GPP": 99.66, "LE": 99.38, "H": 100.0, "TA": 100.0, "SW_IN": 92.37}, "acceptableQcPct": 82.2, "variablesAvailableCount": 6}, {"siteId": "CL-SDF", "siteName": "Senda Darwin Forest", "country": "Chile", "regionalScope": "Chiloé Island, Northern Patagonia / temperate rainforest region", "ecosystem": "Old-growth North Patagonian rainforest", "ecosystemBiome": "Evergreen Broadleaf Forest", "igbp": "EBF", "network": "AmeriFlux", "lat": -41.883, "lon": -73.676, "yearStart": 2014, "yearEnd": 2021, "coverageYears": 8, "observations": 2922, "utilityScore": 0.886, "qualityClass": "high", "qualityColor": "#2F6B3B", "markerRadius": 16.0, "validPct": {"NEE": 94.32, "GPP": 94.32, "LE": 96.0, "H": 96.0, "TA": 100.0, "SW_IN": 92.33}, "acceptableQcPct": 78.78, "variablesAvailableCount": 6}, {"siteId": "AR-CCg", "siteName": "Carlos Casares grassland", "country": "Argentina", "regionalScope": "Argentina, included as regional comparator outside core Patagonia", "ecosystem": "Grassland", "ecosystemBiome": "Grassland", "igbp": "GRA", "network": "AmeriFlux", "lat": -35.9244, "lon": -61.1855, "yearStart": 2018, "yearEnd": 2024, "coverageYears": 7, "observations": 2557, "utilityScore": 0.837, "qualityClass": "high", "qualityColor": "#2F6B3B", "markerRadius": 14.0, "validPct": {"NEE": 85.8, "GPP": 85.8, "LE": 84.0, "H": 87.17, "TA": 100.0, "SW_IN": 100.0}, "acceptableQcPct": 74.14, "variablesAvailableCount": 6}, {"siteId": "CL-ACF", "siteName": "Alerce Costero Forest", "country": "Chile", "regionalScope": "Alerce Costero, southern Chile", "ecosystem": "Temperate forest", "ecosystemBiome": "Evergreen Needleleaf Forest", "igbp": "ENF", "network": "AmeriFlux", "lat": -40.1726, "lon": -73.4439, "yearStart": 2018, "yearEnd": 2020, "coverageYears": 3, "observations": 1096, "utilityScore": 0.804, "qualityClass": "high", "qualityColor": "#2F6B3B", "markerRadius": 6.0, "validPct": {"NEE": 98.63, "GPP": 98.63, "LE": 98.63, "H": 98.63, "TA": 98.63, "SW_IN": 98.63}, "acceptableQcPct": 93.05, "variablesAvailableCount": 6}, {"siteId": "AR-TF1", "siteName": "Rio Moat bog", "country": "Argentina", "regionalScope": "Tierra del Fuego / Southern Patagonia", "ecosystem": "Bog / wetland", "ecosystemBiome": "Wetland", "igbp": "WET", "network": "AmeriFlux", "lat": -54.9733, "lon": -66.7335, "yearStart": 2016, "yearEnd": 2018, "coverageYears": 3, "observations": 1096, "utilityScore": 0.713, "qualityClass": "medium", "qualityColor": "#C78C1B", "markerRadius": 6.0, "validPct": {"NEE": 79.29, "GPP": 79.29, "LE": 79.29, "H": 79.29, "TA": 79.01, "SW_IN": 79.11}, "acceptableQcPct": 75.84, "variablesAvailableCount": 6}, {"siteId": "AR-TF2", "siteName": "Rio Pipo bog", "country": "Argentina", "regionalScope": "Tierra del Fuego / Southern Patagonia", "ecosystem": "Bog / wetland", "ecosystemBiome": "Wetland", "igbp": "WET", "network": "AmeriFlux", "lat": -54.8269, "lon": -68.4549, "yearStart": 2016, "yearEnd": 2018, "coverageYears": 3, "observations": 1096, "utilityScore": 0.678, "qualityClass": "medium", "qualityColor": "#C78C1B", "markerRadius": 6.0, "validPct": {"NEE": 75.91, "GPP": 75.91, "LE": 75.91, "H": 75.91, "TA": 75.55, "SW_IN": 65.78}, "acceptableQcPct": 66.84, "variablesAvailableCount": 6}], "representativeness": {"biomeCoverage": [{"biome": "Wetland", "stationCount": 3}, {"biome": "Grassland", "stationCount": 1}, {"biome": "Evergreen Needleleaf Forest", "stationCount": 1}, {"biome": "Evergreen Broadleaf Forest", "stationCount": 1}], "perStation": [{"siteId": "AR-CCg", "biome": "Grassland", "igbp": "GRA", "stationsSharingBiome": 1, "soleRepresentative": true, "lat": -35.9244, "lon": -61.1855, "nearestNeighborId": "CL-ACF", "nearestNeighborKm": 1171.4, "reachRadiusKm": 585.7}, {"siteId": "AR-TF1", "biome": "Wetland", "igbp": "WET", "stationsSharingBiome": 3, "soleRepresentative": false, "lat": -54.9733, "lon": -66.7335, "nearestNeighborId": "AR-TF2", "nearestNeighborKm": 111.3, "reachRadiusKm": 55.6}, {"siteId": "AR-TF2", "biome": "Wetland", "igbp": "WET", "stationsSharingBiome": 3, "soleRepresentative": false, "lat": -54.8269, "lon": -68.4549, "nearestNeighborId": "AR-TF1", "nearestNeighborKm": 111.3, "reachRadiusKm": 55.6}, {"siteId": "CL-ACF", "biome": "Evergreen Needleleaf Forest", "igbp": "ENF", "stationsSharingBiome": 1, "soleRepresentative": true, "lat": -40.1726, "lon": -73.4439, "nearestNeighborId": "CL-SDP", "nearestNeighborKm": 190.7, "reachRadiusKm": 95.3}, {"siteId": "CL-SDF", "biome": "Evergreen Broadleaf Forest", "igbp": "EBF", "stationsSharingBiome": 1, "soleRepresentative": true, "lat": -41.883, "lon": -73.676, "nearestNeighborId": "CL-SDP", "nearestNeighborKm": 0.9, "reachRadiusKm": 0.5}, {"siteId": "CL-SDP", "biome": "Wetland", "igbp": "WET", "stationsSharingBiome": 3, "soleRepresentative": false, "lat": -41.879, "lon": -73.666, "nearestNeighborId": "CL-SDF", "nearestNeighborKm": 0.9, "reachRadiusKm": 0.5}]}}